[
  {
    "postalCode": "8793",
    "lat": 50.9032227,
    "lng": 3.4098142,
    "place_id": "0x47c33f71f8fc0185:0x95814a2d57ac5c24",
    "name": "Babylux Conceptstore Waregem",
    "address": "Gentseweg 604, 8793 Waregem, België",
    "city": "Waregem",
    "country": "België",
    "category": "Babywinkel",
    "website": "https://www.babylux.be/nl",
    "maps_query": "Babylux Conceptstore Waregem, Gentseweg 604, 8793 Waregem, België"
  },
  {
    "postalCode": "3960",
    "lat": 51.138842,
    "lng": 5.6035473,
    "place_id": "0x47c0d3dd34324f01:0x93fda464b62e1fe2",
    "name": "Dreambaby Bree",
    "address": "Regenboogstraat 12, 3960 Bree, België",
    "city": "Bree",
    "country": "België",
    "category": "Babywinkel",
    "website": "https://www.dreambaby.be/search?q=joie",
    "maps_query": "Dreambaby Bree, Regenboogstraat 12, 3960 Bree, België"
  },
  {
    "postalCode": "8000",
    "lat": 51.2223857,
    "lng": 3.2108264,
    "place_id": "0x47c3572a63b8253b:0xc03878a4e0bb8154",
    "name": "Dreambaby Brugge",
    "address": "Blankenbergsesteenweg 420, 8000 Brugge, België",
    "city": "Brugge",
    "country": "België",
    "category": "Babywinkel",
    "website": "https://www.dreambaby.be/search?q=joie",
    "maps_query": "Dreambaby Brugge, Blankenbergsesteenweg 420, 8000 Brugge, België"
  },
  {
    "postalCode": "9470",
    "lat": 50.8733518,
    "lng": 4.0775873,
    "place_id": "0x47c3bc6eccedc535:0xea1b0a70ac6a75a3",
    "name": "Dreambaby Denderleeuw",
    "address": "Kasteelstraat 28-30, 9470 Denderleeuw, België",
    "city": "Denderleeuw",
    "country": "België",
    "category": "Babywinkel",
    "website": "https://www.dreambaby.be/search?q=joie",
    "maps_query": "Dreambaby Denderleeuw, Kasteelstraat 28-30, 9470 Denderleeuw, België"
  },
  {
    "postalCode": "7500",
    "lat": 50.6034406,
    "lng": 3.4245977,
    "place_id": "0x47c2e04c1a31f57b:0x331984cb044e5bd7",
    "name": "Dreambaby Doornik",
    "address": "Chaussée de Bruxelles 376, 7500 Doornik, België",
    "city": "Doornik",
    "country": "België",
    "category": "Babywinkel",
    "website": "https://www.dreambaby.be/search?q=joie",
    "maps_query": "Dreambaby Doornik, Chaussée de Bruxelles 376, 7500 Doornik, België"
  },
  {
    "postalCode": "9000",
    "lat": 51.0268751,
    "lng": 3.726574,
    "place_id": "0x47c373fa0c11f1c5:0xe199f90958a60fe5",
    "name": "Dreambaby Gent",
    "address": "Corneel Heymanslaan 17, 9000 Gent, België",
    "city": "Gent",
    "country": "België",
    "category": "Babywinkel",
    "website": "https://www.dreambaby.be/search?q=joie",
    "maps_query": "Dreambaby Gent, Corneel Heymanslaan 17, 9000 Gent, België"
  },
  {
    "postalCode": "1702",
    "lat": 50.8680146,
    "lng": 4.2770022,
    "place_id": "0x47c3c12310b37c0f:0xdc1324701924c388",
    "name": "Dreambaby Groot Bijgaarden",
    "address": "Brusselstraat 12, 1702 Dilbeek",
    "city": "Dilbeek",
    "country": "België",
    "category": "Babywinkel",
    "website": "https://www.dreambaby.be/search?q=joie",
    "maps_query": "Dreambaby Groot Bijgaarden, Brusselstraat 12, 1702 Dilbeek"
  },
  {
    "postalCode": "1500",
    "lat": 50.7298387,
    "lng": 4.2250076,
    "place_id": "0x47c3c852183c0855:0x2f85033260ad4eac",
    "name": "Dreambaby Halle",
    "address": "Edingensesteenweg 75, 1500 Halle, België",
    "city": "Halle",
    "country": "België",
    "category": "Babywinkel",
    "website": "https://www.dreambaby.be/search?q=joie",
    "maps_query": "Dreambaby Halle, Edingensesteenweg 75, 1500 Halle, België"
  },
  {
    "postalCode": "4040",
    "lat": 50.6898193,
    "lng": 5.6426616,
    "place_id": "0x47c0f1b56174cc09:0xc8f568090f32934",
    "name": "Dreambaby Herstal",
    "address": "Rue Basse Campagne 155, 4040 Herstal, België",
    "city": "Herstal",
    "country": "België",
    "category": "Babywinkel",
    "website": "https://www.dreambaby.be/search?q=joie",
    "maps_query": "Dreambaby Herstal, Rue Basse Campagne 155, 4040 Herstal, België"
  },
  {
    "postalCode": "7012",
    "lat": 50.4458659,
    "lng": 3.8741207,
    "place_id": "0x47c25b715e8ae571:0x9c0c6e11fbca222b",
    "name": "Dreambaby Jemappes",
    "address": "Avenue Maréchal Foch 934, 7012 Jemappes, België",
    "city": "Jemappes",
    "country": "België",
    "category": "Babywinkel",
    "website": "https://www.dreambaby.be/search?q=joie",
    "maps_query": "Dreambaby Jemappes, Avenue Maréchal Foch 934, 7012 Jemappes, België"
  },
  {
    "postalCode": "8520",
    "lat": 50.8474139,
    "lng": 3.2634178,
    "place_id": "0x47c33a549a935757:0x679a6a371ca5c447",
    "name": "Dreambaby Kuurne",
    "address": "Ringlaan 6, 8520 Kuurne, België",
    "city": "Kuurne",
    "country": "België",
    "category": "Babywinkel",
    "website": "https://www.dreambaby.be/search?q=joie",
    "maps_query": "Dreambaby Kuurne, Ringlaan 6, 8520 Kuurne, België"
  },
  {
    "postalCode": "7100",
    "lat": 50.4668264,
    "lng": 4.2055544,
    "place_id": "0x47c2379df42e8f5d:0x7199b3e66c3b6409",
    "name": "Dreambaby La Louvière",
    "address": "Rue de la Franco-Belge 228, 7100 La Louvière, België",
    "city": "La Louvière",
    "country": "België",
    "category": "Babywinkel",
    "website": "https://www.dreambaby.be/search?q=joie",
    "maps_query": "Dreambaby La Louvière, Rue de la Franco-Belge 228, 7100 La Louvière, België"
  },
  {
    "postalCode": "9340",
    "lat": 50.9795661,
    "lng": 3.9702341,
    "place_id": "0x47c3a2a049dbcbbd:0xb1b8efc13fd0aae3",
    "name": "Dreambaby Lede",
    "address": "Wichelsesteenweg 194, 9340 Lede, België",
    "city": "Lede",
    "country": "België",
    "category": "Babywinkel",
    "website": "https://www.dreambaby.be/search?q=joie",
    "maps_query": "Dreambaby Lede, Wichelsesteenweg 194, 9340 Lede, België"
  },
  {
    "postalCode": "3000",
    "lat": 50.8889493,
    "lng": 4.7030166,
    "place_id": "0x47c160cfa17a85cd:0x7c19ed06df398966",
    "name": "Dreambaby Leuven",
    "address": "Diestsesteenweg 60, 3000 Leuven, België",
    "city": "Leuven",
    "country": "België",
    "category": "Babywinkel",
    "website": "https://www.dreambaby.be/search?q=joie",
    "maps_query": "Dreambaby Leuven, Diestsesteenweg 60, 3000 Leuven, België"
  },
  {
    "postalCode": "2500",
    "lat": 51.1462282,
    "lng": 4.5394347,
    "place_id": "0x47c3fb905078b52d:0x5b4945eb74d274c4",
    "name": "Dreambaby Lier",
    "address": "Antwerpsesteenweg 342, 2500 Lier, België",
    "city": "Lier",
    "country": "België",
    "category": "Babywinkel",
    "website": "https://www.dreambaby.be/search?q=joie",
    "maps_query": "Dreambaby Lier, Antwerpsesteenweg 342, 2500 Lier, België"
  },
  {
    "postalCode": "9080",
    "lat": 51.0929871,
    "lng": 3.8131371,
    "place_id": "0x47c377bf2e513117:0x9ced78a57dffab70",
    "name": "Dreambaby Lochristi",
    "address": "Antwerpsesteenweg 36, 9080 Lochristi, België",
    "city": "Lochristi",
    "country": "België",
    "category": "Babywinkel",
    "website": "https://www.dreambaby.be/search?q=joie",
    "maps_query": "Dreambaby Lochristi, Antwerpsesteenweg 36, 9080 Lochristi, België"
  },
  {
    "postalCode": "2800",
    "lat": 51.0347769,
    "lng": 4.4690219,
    "place_id": "0x47c3e5bbd44f43cb:0x8f818cc4dabd4ebf",
    "name": "Dreambaby Mechelen",
    "address": "Liersesteenweg 432, 2800 Mechelen, België",
    "city": "Mechelen",
    "country": "België",
    "category": "Babywinkel",
    "website": "https://www.dreambaby.be/search?q=joie",
    "maps_query": "Dreambaby Mechelen, Liersesteenweg 432, 2800 Mechelen, België"
  },
  {
    "postalCode": "2170",
    "lat": 51.2525405,
    "lng": 4.4561097,
    "place_id": "0x47c3f7e571064c3d:0x17102b66dbe996d7",
    "name": "Dreambaby Merksem",
    "address": "Bredabaan 811, 2170 Merksem, België",
    "city": "Merksem",
    "country": "België",
    "category": "Babywinkel",
    "website": "https://www.dreambaby.be/search?q=joie",
    "maps_query": "Dreambaby Merksem, Bredabaan 811, 2170 Merksem, België"
  },
  {
    "postalCode": "7822",
    "lat": 50.6411398,
    "lng": 3.8208168,
    "place_id": "0x47c3aae14c1ad2c9:0x5d74e76582e3985f",
    "name": "Dreambaby Meslin-l'Évêque",
    "address": "Chaussée de Bruxelles 335, 7822 Meslin-l'Évêque, België",
    "city": "Meslin-l'Évêque",
    "country": "België",
    "category": "Babywinkel",
    "website": "https://www.dreambaby.be/search?q=joie",
    "maps_query": "Dreambaby Meslin-l'Évêque, Chaussée de Bruxelles 335, 7822 Meslin-l'Évêque, België"
  },
  {
    "postalCode": "2400",
    "lat": 51.1806203,
    "lng": 5.1204366,
    "place_id": "0x47c135b2d953a751:0x4faed3d2aa3dbe78",
    "name": "Dreambaby Mol",
    "address": "Molderdijk 65, 2400 Mol, België",
    "city": "Mol",
    "country": "België",
    "category": "Babywinkel",
    "website": "https://www.dreambaby.be/search?q=joie",
    "maps_query": "Dreambaby Mol, Molderdijk 65, 2400 Mol, België"
  },
  {
    "postalCode": "5100",
    "lat": 50.4646869,
    "lng": 4.8943198,
    "place_id": "0x47c198e2ee0cbfaf:0xfa4448633c3d9427",
    "name": "Dreambaby Namen",
    "address": "Chaussée de Liège 477, 5100 Namen, België",
    "city": "Namen",
    "country": "België",
    "category": "Babywinkel",
    "website": "https://www.dreambaby.be/search?q=joie",
    "maps_query": "Dreambaby Namen, Chaussée de Liège 477, 5100 Namen, België"
  },
  {
    "postalCode": "8400",
    "lat": 51.208181,
    "lng": 2.9013777,
    "place_id": "0x47dcaf22d006b82d:0x7f31b34e735fb50",
    "name": "Dreambaby Oostende",
    "address": "Torhoutsesteenweg 694, 8400 Oostende, België",
    "city": "Oostende",
    "country": "België",
    "category": "Babywinkel",
    "website": "https://www.dreambaby.be/search?q=joie",
    "maps_query": "Dreambaby Oostende, Torhoutsesteenweg 694, 8400 Oostende, België"
  },
  {
    "postalCode": "8800",
    "lat": 50.95741,
    "lng": 3.1295227,
    "place_id": "0x47c335e31abda5bb:0xd30d4a6bf2801c6b",
    "name": "Dreambaby Roeselare",
    "address": "Brugsesteenweg 353, 8800 Roeselare, België",
    "city": "Roeselare",
    "country": "België",
    "category": "Babywinkel",
    "website": "https://www.dreambaby.be/search?q=joie",
    "maps_query": "Dreambaby Roeselare, Brugsesteenweg 353, 8800 Roeselare, België"
  },
  {
    "postalCode": "2300",
    "lat": 51.3124071,
    "lng": 4.9215742,
    "place_id": "0x47c6b23bf84d3fcf:0x428b2d0cea834149",
    "name": "Dreambaby Turnhout",
    "address": "Nieuwe Kaai 31, 2300 Turnhout, België",
    "city": "Turnhout",
    "country": "België",
    "category": "Babywinkel",
    "website": "https://www.dreambaby.be/search?q=joie",
    "maps_query": "Dreambaby Turnhout, Nieuwe Kaai 31, 2300 Turnhout, België"
  },
  {
    "postalCode": "1410",
    "lat": 50.7061401,
    "lng": 4.3996945,
    "place_id": "0x47c3d1c48899bb69:0xf08e35a3f378debf",
    "name": "Dreambaby Waterloo",
    "address": "Chaussée de Bruxelles 319, 1410 Waterloo, België",
    "city": "Waterloo",
    "country": "België",
    "category": "Babywinkel",
    "website": "https://www.dreambaby.be/search?q=joie",
    "maps_query": "Dreambaby Waterloo, Chaussée de Bruxelles 319, 1410 Waterloo, België"
  },
  {
    "postalCode": "2610",
    "lat": 51.1645114,
    "lng": 4.381826,
    "place_id": "0x47c3f137a1aa7011:0x87daa7908046be97",
    "name": "Dreambaby Wilrijk",
    "address": "Boomsesteenweg 546, 2610 Wilrijk, België",
    "city": "Wilrijk",
    "country": "België",
    "category": "Babywinkel",
    "website": "https://www.dreambaby.be/search?q=joie",
    "maps_query": "Dreambaby Wilrijk, Boomsesteenweg 546, 2610 Wilrijk, België"
  },
  {
    "postalCode": "1930",
    "lat": 50.864323,
    "lng": 4.4305377,
    "place_id": "0x47c3dd5166f647af:0xc458ef30945a84b2",
    "name": "Dreambaby Zaventem",
    "address": "Leuvensesteenweg 615, 1930 Zaventem, België",
    "city": "Zaventem",
    "country": "België",
    "category": "Babywinkel",
    "website": "https://www.dreambaby.be/search?q=joie",
    "maps_query": "Dreambaby Zaventem, Leuvensesteenweg 615, 1930 Zaventem, België"
  }
]